{"Companies": {"1": {"id": "0", "name": "Alpen Rose Inn", "state": "Washington", "location": "Laevenworth", "website": "http://alpenroseinn.com/", "address": "500 Alpine Place", "zip": "98826", "mail": "info@alpenroseinn.com", "phone": "800-582-2474 | 509-548-3000", "rating": 3.4, "pricing": 3}, "2": {"id": "1", "name": "Blue Water Bar & Grill", "state": "Washington", "location": "Friday Harbor", "website": "www.bluewaterbarandgrill.com | https://www.facebook.com/Blue-Water-Bar-Grill-121215651222891/", "address": "7 Spring St", "zip": "98250", "mail": "info@bluewaterbarandgrill.com", "phone": "360-378-2245", "rating": null, "pricing": null}, "3": {"id": "2", "name": "Columbia Hospitality", "state": "Washington", "location": "Seattle", "website": "www.coyumbiahospitality.com/index.php | https://www.columbiahospitality.com/careers.php", "address": "2200 Alaskan Way, Suite 200", "zip": "98121", "mail": "careers@columbiahospitality.com | info@columbiahospitality.com", "phone": "206-239-1800 | 206-239-1856", "rating": null, "pricing": null}, "4": {"id": "3", "name": "Cozy Rose Inn", "state": "Washington", "location": "Grandview", "website": "www.cozyroseinn.com | https://www.facebook.com/Cozy-Rose-Inn-371670299628243/", "address": "1220 Forsell Road", "zip": "98930", "mail": "stay@cozyroseinn.com", "phone": "509-882-4669", "rating": null, "pricing": null}, "5": {"id": "4", "name": "Crystal Mountain Hotels", "state": "Washington", "location": "Crystal Mountain", "website": "https://www.crystalhotels.com/ | https://www.facebook.com/CrystalMountainHotels/", "address": "33818 Crystal Mountain Blvd.", "zip": "98022", "mail": "reservations@crystalhotels.com", "phone": "360-663-2262", "rating": null, "pricing": null}, "6": {"id": "5", "name": "Green Tortoise Hostel", "state": "Washington", "location": "Seattle", "website": "www.greentortoise.net", "address": "105 Pike St.", "zip": "98101", "mail": "info@greentortoise.net", "phone": "206-340-1222", "rating": null, "pricing": null}, "7": {"id": "6", "name": "Harborside Inn", "state": "Washington", "location": "Port Townsend", "website": "www.harborside-inn.com", "address": "330 Benedict St", "zip": "98368", "mail": "harborsideinn@gmail.com", "phone": "360-385-7909", "rating": null, "pricing": null}, "8": {"id": "7", "name": "Lakedale Resort", "state": "Washington", "location": "Friday Harbor", "website": "http://www.lakedale.com/", "address": "4313 Roche Harbor Road", "zip": "98250", "mail": "info@lakedale.com", "phone": "360-378-2350", "rating": null, "pricing": null}, "9": {"id": "8", "name": "Masonry, The", "state": "Washington", "location": "Seattle", "website": "http://www.themasonryseattle.com/index.html | http://www.quiznos.com/about_careers.html", "address": "20 Roy St", "zip": "98109", "mail": "info@themasonryseattle.com", "phone": "206-453-4375", "rating": null, "pricing": null}, "10": {"id": "9", "name": "Mt. Ranier Guest Services", "state": "Washington", "location": "Ashford", "website": "https://mtrainierguestservices.com/", "address": "55106 Kernahan Rd E.", "zip": "98304", "mail": "mora_info@nps.gov", "phone": "360-569-2275", "rating": null, "pricing": null}, "11": {"id": "10", "name": "Pirates Plunder", "state": "Washington", "location": "Seattle", "website": "www.piratesplunder.com", "address": "1301 Alaskan Way  (Pier 57)", "zip": "98101", "mail": "nfo@piratesplunder.com", "phone": "206-624-5673 | 206-623-8600", "rating": null, "pricing": null}, "12": {"id": "11", "name": "Ram Restaurant & Brewery", "state": "Washington", "location": "Tacoma", "website": "https://www.theram.com/ | https://www.theram.com/careers.php", "address": "3001 Ruston Way", "zip": "98402", "mail": "careers@theram.com", "phone": "253.588.1788", "rating": null, "pricing": null}}}